{
  "type": "FeatureCollection",
  "_comment": "Simplified GeoJSON for world map. Properties: name (country), deaths (annual tobacco deaths in thousands)",
  "features": [
    {
      "type": "Feature",
      "properties": { "name": "China", "deaths": 2400 },
      "geometry": { "type": "Point", "coordinates": [104.1954, 35.8617] }
    },
    {
      "type": "Feature",
      "properties": { "name": "India", "deaths": 1350 },
      "geometry": { "type": "Point", "coordinates": [78.9629, 20.5937] }
    },
    {
      "type": "Feature",
      "properties": { "name": "USA", "deaths": 480 },
      "geometry": { "type": "Point", "coordinates": [-95.7129, 37.0902] }
    },
    {
      "type": "Feature",
      "properties": { "name": "Russia", "deaths": 395 },
      "geometry": { "type": "Point", "coordinates": [105.3188, 61.524] }
    },
    {
      "type": "Feature",
      "properties": { "name": "Indonesia", "deaths": 290 },
      "geometry": { "type": "Point", "coordinates": [113.9213, -0.7893] }
    },
    {
      "type": "Feature",
      "properties": { "name": "Japan", "deaths": 194 },
      "geometry": { "type": "Point", "coordinates": [138.2529, 36.2048] }
    },
    {
      "type": "Feature",
      "properties": { "name": "Germany", "deaths": 127 },
      "geometry": { "type": "Point", "coordinates": [10.4515, 51.1657] }
    },
    {
      "type": "Feature",
      "properties": { "name": "Brazil", "deaths": 162 },
      "geometry": { "type": "Point", "coordinates": [-51.9253, -14.235] }
    },
    {
      "type": "Feature",
      "properties": { "name": "Turkey", "deaths": 105 },
      "geometry": { "type": "Point", "coordinates": [35.2433, 38.9637] }
    },
    {
      "type": "Feature",
      "properties": { "name": "UK", "deaths": 78 },
      "geometry": { "type": "Point", "coordinates": [-3.436, 55.3781] }
    },
    {
      "type": "Feature",
      "properties": { "name": "France", "deaths": 75 },
      "geometry": { "type": "Point", "coordinates": [2.2137, 46.2276] }
    },
    {
      "type": "Feature",
      "properties": { "name": "Pakistan", "deaths": 166 },
      "geometry": { "type": "Point", "coordinates": [69.3451, 30.3753] }
    },
    {
      "type": "Feature",
      "properties": { "name": "Bangladesh", "deaths": 161 },
      "geometry": { "type": "Point", "coordinates": [90.3563, 23.685] }
    },
    {
      "type": "Feature",
      "properties": { "name": "Philippines", "deaths": 117 },
      "geometry": { "type": "Point", "coordinates": [121.774, 12.8797] }
    },
    {
      "type": "Feature",
      "properties": { "name": "Vietnam", "deaths": 104 },
      "geometry": { "type": "Point", "coordinates": [108.2772, 14.0583] }
    }
  ]
}
